City_ID,City,Lat,Lng,Max Temp,Humidity,Cloudiness,Wind Speed,Country,Date
0,saipan,15.1355,145.701,28.39,61,75,9.77,MP,1708310674
1,margaret river,-33.95,115.0667,27.36,42,100,4.0,AU,1708310675
2,lionel town,17.8101,-77.2406,27.94,84,46,3.12,JM,1708310675
3,keflavik,64.0049,-22.5624,4.24,93,75,3.09,IS,1708310676
4,stanley,54.868,-1.6985,9.04,85,20,3.09,GB,1708310537
5,vorgashor,67.5833,63.95,-11.04,92,100,8.4,RU,1708310677
6,ancud,-41.8697,-73.8203,13.18,75,7,1.08,CL,1708310677
7,vadso,70.0744,29.7487,-2.91,86,100,8.75,NO,1708310678
8,puerto aysen,-45.4,-72.7,13.15,82,100,1.2,CL,1708310678
9,georgetown,5.4112,100.3354,29.97,79,20,2.06,MY,1708310634
10,iqaluit,63.7506,-68.5145,-33.15,68,20,11.83,CA,1708310650
11,adamstown,-25.066,-130.1015,24.92,76,100,3.28,PN,1708310680
12,ornskoldsvik,63.2909,18.7153,-6.47,93,100,1.54,SE,1708310680
13,waitangi,-43.9535,-176.5597,19.9,85,11,12.14,NZ,1708310681
14,bredasdorp,-34.5322,20.0403,17.52,90,19,3.76,ZA,1708310681
15,invercargill,-46.4,168.35,12.23,78,37,10.28,NZ,1708310682
16,pamandzi,-12.7967,45.2794,27.88,83,75,2.57,YT,1708310682
17,hermanus,-34.4187,19.2345,19.33,84,15,5.96,ZA,1708310683
18,crozet,38.0696,-78.7006,4.48,50,94,2.0,US,1708310683
19,nouadhibou,20.931,-17.0347,19.99,83,5,6.69,MR,1708310684
20,klaksvik,62.2266,-6.589,7.51,97,100,6.42,FO,1708310684
21,selfoss,63.9331,-20.9971,3.8,98,100,1.81,IS,1708310685
22,gobabis,-22.45,18.9667,24.45,47,100,4.66,NA,1708310685
23,haiku-pauwela,20.9219,-156.3051,21.81,65,18,7.6,US,1708310686
24,tiksi,71.6872,128.8694,-36.65,96,48,3.26,RU,1708310686
25,uliastay,47.7417,96.8444,-25.1,68,0,2.0,MN,1708310687
26,naze,28.3667,129.4833,20.51,79,83,7.1,JP,1708310687
27,bethel,41.3712,-73.414,0.92,62,7,4.97,US,1708310688
28,lobujya,27.95,86.8167,-8.71,45,46,1.67,NP,1708310688
29,talnakh,69.4865,88.3972,-19.89,85,100,7.92,RU,1708310689
30,port-aux-francais,-49.35,70.2167,4.69,79,79,7.99,TF,1708310689
31,la'ie,21.6477,-157.9253,24.98,54,3,2.68,US,1708310690
32,hithadhoo,-0.6,73.0833,28.64,80,98,5.74,MV,1708310691
33,khandyga,62.6667,135.6,-31.78,90,100,1.0,RU,1708310691
34,isafjordur,66.0755,-23.124,3.54,85,100,2.07,IS,1708310691
35,masina,-4.3836,15.3914,23.68,92,100,0.55,CD,1708310692
36,ribeira grande,38.5167,-28.7,17.1,89,5,6.26,PT,1708310692
37,smidovich,48.6,133.8167,-9.66,86,100,4.65,RU,1708310693
38,noosa heads,-26.3833,153.15,30.19,66,26,4.21,AU,1708310632
39,al bawiti,28.3492,28.8659,10.67,85,0,3.2,EG,1708310694
40,avarua,-21.2078,-159.775,27.03,65,100,6.17,CK,1708310694
41,porto novo,6.4965,2.6036,28.9,85,5,2.6,BJ,1708310695
42,klyuchi,52.2667,79.1667,-26.5,97,11,2.6,RU,1708310695
43,rodolfo sanchez taboada,31.7167,-116.5667,14.5,70,85,1.6,MX,1708310696
44,edinburgh of the seven seas,-37.0676,-12.3116,14.65,59,86,9.08,SH,1708310696
45,nadi,-17.8,177.4167,30.0,79,75,2.06,FJ,1708310698
46,smithers,54.7804,-127.1743,1.18,69,100,0.0,CA,1708310698
47,hawaiian paradise park,19.5933,-154.9731,21.04,80,100,4.63,US,1708310699
48,paita,-5.0892,-81.1144,25.73,82,81,4.17,PE,1708310699
49,whitehorse,60.7161,-135.0538,-2.57,64,75,6.71,CA,1708310700
50,albany,42.6001,-73.9662,-0.23,56,85,0.89,US,1708310700
51,san martin de los andes,-40.1604,-71.3486,19.33,35,5,0.9,AR,1708310701
52,thompson,55.7435,-97.8558,-22.91,77,40,1.54,CA,1708310702
53,somanda,-3.3667,33.95,18.58,95,100,2.18,TZ,1708310703
54,remire-montjoly,4.9167,-52.2667,26.02,89,75,2.57,GF,1708310704
55,iskateley,67.6803,53.1512,-8.97,94,100,5.71,RU,1708310704
56,ust-nera,64.5667,143.2,-29.22,93,100,1.15,RU,1708310705
57,sao jose da coroa grande,-8.8978,-35.1478,27.25,85,100,3.97,BR,1708310706
58,bilibino,68.0546,166.4372,-22.44,80,44,1.94,RU,1708310707
59,yellowknife,62.456,-114.3525,-19.71,71,75,2.57,CA,1708310707
60,tarkwa,5.3064,-1.9847,25.31,94,81,0.47,GH,1708310708
61,belyy yar,53.6039,91.3903,-28.06,76,59,2.0,RU,1708310708
62,dryden,49.7833,-92.7503,-13.84,66,20,2.57,CA,1708310709
63,aleksandrovsk-sakhalinskiy,50.8975,142.1561,-8.57,93,100,3.42,RU,1708310709
64,lospalos,-8.5186,127.0025,29.64,63,47,5.55,TL,1708310710
65,jawf al maqbabah,13.8378,45.8349,20.25,58,7,1.14,YE,1708310711
66,luderitz,-26.6481,15.1594,16.56,78,0,3.65,NA,1708310711
67,petropavlovsk-kamchatsky,53.0452,158.6483,-4.67,60,0,4.47,RU,1708310712
68,dzhetygara,52.1908,61.2006,-25.72,95,7,2.03,KZ,1708310490
69,grytviken,-54.2811,-36.5092,3.58,88,98,6.66,GS,1708310714
70,luanda,-8.8368,13.2343,28.0,89,20,2.57,AO,1708310715
71,puerto natales,-51.7236,-72.4875,11.42,89,100,1.86,CL,1708310690
72,longyearbyen,78.2186,15.6401,-13.09,66,40,9.26,SJ,1708310716
73,kodiak,57.79,-152.4072,4.73,93,100,2.57,US,1708310716
74,seven pagodas,12.6264,80.1722,25.03,66,22,1.46,IN,1708310717
75,rabo de peixe,37.8,-25.5833,17.77,99,20,2.06,PT,1708310717
76,blackmans bay,-43.0167,147.3167,18.07,66,91,4.29,AU,1708310718
77,ola,59.5833,151.2833,-19.37,65,99,2.23,RU,1708310719
78,aasiaat,68.7098,-52.8699,-15.61,95,93,2.76,GL,1708310719
79,filingue,14.3521,3.3168,21.28,11,18,4.74,NE,1708310721
80,darab,28.7519,54.5444,8.21,26,0,0.93,IR,1708310721
81,tura,25.5198,90.2201,23.15,25,7,0.6,IN,1708310722
82,sitka,57.0531,-135.33,8.94,66,100,0.0,US,1708310722
83,baikunthpur,23.25,82.55,22.48,31,35,1.84,IN,1708310723
84,cabo san lucas,22.8909,-109.9124,24.17,35,0,2.06,MX,1708310434
85,lata,40.1629,-8.3327,12.82,89,35,1.34,PT,1708310724
86,vitebsk,55.1905,30.2033,-7.91,98,70,0.53,BY,1708310726
87,yunyang,33.4474,112.7142,7.91,41,100,8.86,CN,1708310727
88,olonkinbyen,70.9221,-8.7187,0.11,96,98,4.36,SJ,1708310727
89,schwarmstedt,52.68,9.6254,8.5,100,100,8.19,DE,1708310728
90,tommot,58.9564,126.2925,-26.96,85,100,4.73,RU,1708310729
91,saint-francois,46.4154,3.9054,9.12,94,100,1.54,FR,1708310729
92,al wafrah,28.6392,47.9306,13.0,48,0,3.71,KW,1708310730
93,langzhong,31.5504,105.9938,10.45,42,100,3.86,CN,1708310731
94,san patricio,28.017,-97.5169,10.5,54,0,2.07,US,1708310731
95,ushuaia,-54.8,-68.3,8.81,61,40,4.63,AR,1708310521
96,salinas,36.6777,-121.6555,17.45,86,75,9.77,US,1708310637
97,saint-louis,16.3333,-15.0,26.39,12,1,5.18,SN,1708310733
98,garbahaarrey,3.3289,42.2209,25.58,71,74,3.52,SO,1708310733
99,sukhoy log,56.9094,62.0296,-15.45,77,2,4.1,RU,1708310734
100,wailua homesteads,22.0669,-159.378,25.24,55,20,9.26,US,1708310734
101,abepura,-2.6333,140.5833,29.45,70,20,1.54,ID,1708310736
102,susuman,62.7833,148.1667,-29.45,87,100,1.34,RU,1708310736
103,cockburn town,21.4612,-71.1419,26.01,84,1,8.68,TC,1708310737
104,kalevala,65.2,31.1667,-15.51,94,55,2.68,RU,1708310738
105,lebu,-37.6167,-73.65,13.85,87,0,7.65,CL,1708310738
106,yeppoon,-23.1333,150.7333,29.88,68,100,6.85,AU,1708310739
107,la sarre,48.8002,-79.1996,-17.45,89,100,4.58,CA,1708310739
108,krivosheino,57.3431,83.9261,-30.8,100,61,0.73,RU,1708310740
109,qaqortoq,60.7167,-46.0333,-3.68,77,100,3.21,GL,1708310740
110,san rafael del yuma,18.4299,-68.6739,25.11,89,1,3.17,DO,1708310741
111,tamanrasset,22.785,5.5228,9.95,25,0,2.06,DZ,1708310742
112,happy valley-goose bay,53.3168,-60.3315,-11.83,85,100,4.12,CA,1708310742
113,punta arenas,-53.15,-70.9167,12.06,76,20,3.09,CL,1708310556
114,vila franca do campo,37.7167,-25.4333,18.27,99,100,2.95,PT,1708310743
115,hobyo,5.3505,48.5268,25.32,68,64,6.99,SO,1708310744
116,monrovia,6.3005,-10.7969,27.26,87,100,2.43,LR,1708310669
117,oranjemund,-28.55,16.4333,15.74,93,0,1.11,NA,1708310745
118,isola di capo rizzuto,38.96,17.0933,12.88,66,84,1.59,IT,1708310745
119,ilulissat,69.2167,-51.1,-9.99,92,75,2.57,GL,1708310746
120,santa ana,33.7456,-117.8678,17.34,74,75,2.57,US,1708310746
121,kapa'a,22.0752,-159.319,25.99,55,20,9.26,US,1708310747
122,laguna,38.421,-121.4238,17.41,66,75,8.75,US,1708310747
123,pullman,46.7313,-117.1796,4.13,94,100,5.14,US,1708310599
124,college,64.8569,-147.8028,-8.29,64,75,0.0,US,1708310748
125,west island,-12.1568,96.8225,29.99,66,15,3.6,CC,1708310749
126,kone,-21.0595,164.8658,29.5,60,37,3.69,NC,1708310749
127,kailua-kona,19.6406,-155.9956,27.98,69,20,9.26,US,1708310750
128,itoman,26.1247,127.6694,26.21,78,20,6.69,JP,1708310751
129,udachny,66.4167,112.4,-17.96,94,100,7.15,RU,1708310752
130,shubarshi,48.5872,57.1869,-17.84,79,1,3.6,KZ,1708310752
131,la gi,10.6667,107.7833,29.26,60,2,6.16,VN,1708310753
132,port mathurin,-19.6833,63.4167,26.53,69,54,5.81,MU,1708310753
133,nieves,15.3274,120.9485,28.73,42,80,4.64,PH,1708310754
134,prince george,53.9166,-122.753,-2.64,77,100,0.0,CA,1708310754
135,alice springs,-23.7,133.8833,35.75,30,40,6.17,AU,1708310728
136,pandan,14.0453,124.1694,28.02,67,26,5.06,PH,1708310755
137,kurmuk,10.55,34.2833,24.09,28,97,2.27,SD,1708310756
138,mariental,-24.6333,17.9667,25.03,40,5,2.46,NA,1708310757
139,ranong,9.9658,98.6348,29.96,64,95,2.12,TH,1708310757
140,fuglafjordur,62.244,-6.814,7.26,95,100,4.79,FO,1708310758
141,flying fish cove,-10.4217,105.6791,28.82,69,9,3.09,CX,1708310758
142,phan rang-thap cham,11.5667,108.9833,30.27,54,0,2.75,VN,1708310759
143,hadibu,12.65,54.0333,23.0,64,6,3.26,YE,1708310759
144,patong,7.8961,98.2966,30.08,70,21,3.7,TH,1708310760
145,khanty-mansiysk,61.0042,69.0019,-18.83,65,0,4.02,RU,1708310541
146,san antonio de pale,-1.4014,5.6325,28.49,77,84,1.87,GQ,1708310761
147,tofol,5.3248,163.0078,28.88,79,75,5.14,FM,1708310761
148,paka,4.6374,103.4368,26.96,89,40,0.0,MY,1708310762
149,fort bragg,35.139,-79.006,6.01,53,0,2.57,US,1708310763
150,sechura,-5.5569,-80.8222,27.25,72,95,5.17,PE,1708310746
151,sao joao da barra,-21.6403,-41.0511,23.82,91,100,3.06,BR,1708310764
152,carutapera,-1.195,-46.02,25.32,93,89,4.01,BR,1708310762
153,namibe,-15.1961,12.1522,26.39,76,100,2.88,AO,1708310765
154,beau vallon,-20.4189,57.6953,26.23,73,40,3.6,MU,1708310765
155,st. john's,47.5649,-52.7093,-5.12,88,75,13.38,CA,1708310766
156,labrador city,52.9463,-66.9114,-21.05,65,75,2.57,CA,1708310766
157,atafu village,-8.5421,-172.5159,28.86,80,90,5.86,TK,1708310767
158,magadan,59.5667,150.8,-19.71,63,100,1.49,RU,1708310768
159,arraial do cabo,-22.9661,-42.0278,24.73,87,92,3.17,BR,1708310613
160,kavaratti,10.5669,72.642,27.93,74,91,3.12,IN,1708310769
161,napili-honokowai,20.9708,-156.6705,23.64,68,4,9.49,US,1708310770
162,novodvinsk,64.4165,40.8122,-6.14,94,98,3.23,RU,1708310770
163,papatowai,-46.5619,169.4708,12.78,72,15,10.53,NZ,1708310771
164,mlyniv,50.509,25.6168,-0.47,76,94,2.5,UA,1708310771
165,hell-ville,-13.4,48.2667,27.94,76,100,4.67,MG,1708310772
166,port elizabeth,-33.918,25.5701,20.17,90,0,4.63,ZA,1708310772
167,kodinsk,58.6881,99.1844,-29.87,98,86,1.35,RU,1708310773
168,mount pearl,47.5166,-52.7813,-5.58,89,75,13.38,CA,1708310774
169,utrik,11.2278,169.8474,26.7,81,100,4.41,MH,1708310774
170,enewetak,11.3474,162.3373,26.44,72,97,6.61,MH,1708310775
171,chokwe,-24.5333,32.9833,22.55,98,83,2.98,MZ,1708310775
172,nabire,-3.3667,135.4833,27.11,78,100,0.87,ID,1708310776
173,i-n-salah,27.1935,2.4607,17.34,27,9,9.94,DZ,1708310777
174,jamestown,42.097,-79.2353,-0.23,73,99,5.36,US,1708310521
175,suva,-18.1416,178.4415,26.71,94,100,4.63,FJ,1708310681
176,santo antonio do ica,-3.1022,-67.9397,24.31,98,90,1.25,BR,1708310779
177,xinyuan,37.3,99.0,-2.24,35,77,2.32,CN,1708310779
178,axim,4.8699,-2.2405,26.85,89,79,2.57,GH,1708310780
179,yemva,62.59,50.8594,-13.24,96,97,2.59,RU,1708310781
180,kirakira,-10.4544,161.9205,29.58,79,38,3.72,SB,1708310781
181,tual,-5.6667,132.75,28.19,78,91,3.5,ID,1708310782
182,peace river,56.2501,-117.286,-7.83,62,20,2.57,CA,1708310783
183,muynoq,43.7683,59.0214,-2.53,58,100,6.47,UZ,1708310783
184,askoy,60.4092,5.226,4.16,100,75,5.66,NO,1708310784
185,port lincoln,-34.7333,135.8667,24.56,54,95,4.33,AU,1708310751
186,mejit,10.2753,170.8646,27.15,80,91,5.34,MH,1708310785
187,yilan,24.757,121.753,29.92,59,36,2.52,TW,1708310786
188,ussel,45.55,2.3167,6.05,96,100,1.19,FR,1708310786
189,baishishan,43.5833,127.5667,-8.04,81,100,3.82,CN,1708310787
190,aykhal,66.0,111.5,-20.07,96,100,5.92,RU,1708310787
191,bosansko grahovo,44.1794,16.3639,3.74,79,13,1.17,BA,1708310788
192,severo-yeniseyskiy,60.3725,93.0408,-31.09,97,74,1.33,RU,1708310788
193,punaauia,-17.6333,-149.6,30.8,70,75,4.12,PF,1708310789
194,la passe,45.5549,-0.8967,12.13,85,100,3.77,FR,1708310789
195,gizo,-8.103,156.8419,29.51,72,31,4.92,SB,1708310790
196,onega,63.9061,38.1404,-12.43,95,62,3.07,RU,1708310791
197,anadyr,64.75,177.4833,-10.72,78,20,19.0,RU,1708310791
198,taro,-8.3862,115.28,27.0,61,59,0.32,ID,1708310792
199,marsh harbour,26.5412,-77.0636,23.77,85,100,13.38,BS,1708310792
200,fort st. john,56.2499,-120.8529,-2.06,46,20,1.54,CA,1708310793
201,sur,22.5667,59.5289,23.88,63,23,1.14,OM,1708310794
202,nicoya,10.1483,-85.452,27.88,77,91,1.45,CR,1708310556
203,karratha,-20.7377,116.8463,41.42,18,2,4.9,AU,1708310795
204,saint-philippe,-21.3585,55.7679,24.77,82,97,6.34,RE,1708310795
205,codrington,-38.2667,141.9667,21.18,54,77,6.14,AU,1708310796
206,dudinka,69.4058,86.1778,-19.66,91,100,12.07,RU,1708310796
207,tolanaro,-25.0319,46.9987,24.04,88,20,4.12,MG,1708310797
208,katsuura,35.1333,140.3,17.1,69,91,9.76,JP,1708310797
209,knottsville,37.7717,-86.9042,0.97,80,0,2.31,US,1708310798
210,atbasar,51.8,68.3333,-35.59,100,94,2.24,KZ,1708310798
211,dakhla,23.6848,-15.958,23.12,38,0,9.81,EH,1708310799
212,kosk,37.8533,28.0517,2.71,87,2,1.03,TR,1708310799
213,el bolson,-41.9667,-71.5167,15.49,60,22,0.81,AR,1708310800
214,ed damer,17.5928,33.9592,16.76,31,43,6.51,SD,1708310801
215,tafuna,-14.3358,-170.72,30.97,84,100,2.57,AS,1708310802
216,villanueva de la serena,38.9766,-5.7974,7.96,83,27,0.81,ES,1708310802
217,fort-shevchenko,44.5086,50.263,-1.21,56,89,5.46,KZ,1708310803
218,shanwei,22.782,115.3475,22.79,79,100,2.2,CN,1708310803
219,puerto ayora,-0.7393,-90.3518,24.75,100,100,2.24,EC,1708310804
220,morehead city,34.7229,-76.726,7.0,66,0,2.06,US,1708310805
221,turkmenbasy,40.0222,52.9552,-8.57,79,0,3.09,TM,1708310806
222,panjakent,39.4952,67.6093,-4.01,90,100,2.18,TJ,1708310807
223,posto fiscal rolim de moura,-13.0833,-62.2667,25.93,87,99,1.49,BR,1708310807
224,luchegorsk,46.4764,134.2569,-7.93,93,100,4.68,RU,1708310808
225,la puebla de montalban,39.863,-4.3592,9.73,65,37,0.81,ES,1708310808
226,port alfred,-33.5906,26.891,21.33,87,15,6.76,ZA,1708310809
227,bardai,11.65,7.2333,19.91,16,75,3.8,NG,1708310810
228,nurota,40.5614,65.6886,-6.39,83,97,4.05,UZ,1708310810
229,lihue,21.9789,-159.3672,25.58,54,20,9.26,US,1708310811
230,skara,58.3866,13.4384,0.97,96,100,0.87,SE,1708310812
231,bloomfield,40.8068,-74.1854,4.02,56,0,3.6,US,1708310812
232,kingston,17.997,-76.7936,27.53,78,20,7.2,JM,1708310662
233,margate,51.3813,1.3862,8.72,86,6,1.34,GB,1708310776
234,balashov,51.5502,43.1667,-8.98,96,95,3.3,RU,1708310814
235,mokrous,51.2333,47.5167,-6.52,95,100,6.67,RU,1708310814
236,kupang,-10.1667,123.5833,31.32,84,75,6.17,ID,1708310815
237,vernon,50.2581,-119.2691,1.2,69,57,0.51,CA,1708310816
238,uturoa,-16.7333,-151.4333,28.4,77,100,4.64,PF,1708310816
239,tvoroyri,61.5556,-6.8111,8.12,91,100,8.8,FO,1708310817
240,lensk,60.7253,114.9278,-27.13,92,100,6.15,RU,1708310817
241,badger,64.8,-147.5333,-8.34,70,75,0.0,US,1708310818
242,port isabel,26.0734,-97.2086,9.47,71,0,2.57,US,1708310818
243,chui,-33.6971,-53.4616,22.09,95,73,4.17,UY,1708310819
244,dengzhou,37.8086,120.7508,-0.62,54,98,15.31,CN,1708310819
245,chiang klang,19.2938,100.8617,30.25,32,0,1.46,TH,1708310820
246,ghadamis,30.1337,9.5007,14.53,47,77,7.55,LY,1708310820
247,tshabong,-26.05,22.45,24.59,51,90,4.65,BW,1708310821
248,yetkul',54.8221,61.588,-18.54,87,5,4.02,RU,1708310821
249,gebeit,21.0667,36.3167,12.21,79,55,2.19,SD,1708310822
250,hami,42.8,93.45,-8.13,21,100,1.56,CN,1708310823
251,hotan,37.0997,79.9269,-3.4,60,100,0.37,CN,1708310823
252,omutinskiy,56.4745,67.6709,-22.56,94,11,4.37,RU,1708310824
253,tazacorte,28.629,-17.9293,21.54,33,100,5.14,ES,1708310824
254,bikenibeu village,1.3673,173.1241,31.98,70,40,4.63,KI,1708310825
255,oodweyne,9.4092,45.064,18.76,66,31,3.53,SO,1708310826
256,yanykurgan,43.915,67.2481,-5.83,32,100,4.72,KZ,1708310826
257,trogir,43.5125,16.2517,8.22,71,75,0.0,HR,1708310827
258,kindu,-2.95,25.95,21.8,99,100,2.07,CD,1708310827
259,tamandare,-8.7597,-35.1047,27.18,86,100,3.61,BR,1708310828
260,dokshytsy,54.8924,27.7689,-4.28,89,77,1.64,BY,1708310828
261,panacan,9.2463,118.4082,28.85,70,66,6.83,PH,1708310830
262,weno,7.4515,151.8468,30.97,62,40,6.17,FM,1708310830
263,nova sintra,14.8667,-24.7167,20.75,78,0,8.82,CV,1708310831
264,altdorf,49.3875,11.3572,8.22,92,100,7.29,DE,1708310831
265,barra de santo antonio,-9.4047,-35.5072,26.6,88,100,3.31,BR,1708310832
266,mombetsu,44.3525,143.3525,15.01,44,75,7.2,JP,1708310832
267,chernigovka,44.3389,132.5728,-4.21,93,100,5.53,RU,1708310833
268,constantia,44.1833,28.65,3.38,74,87,3.73,RO,1708310834
269,rio grande,-32.035,-52.0986,23.86,87,27,5.96,BR,1708310834
270,grand baie,-20.0182,57.5802,26.36,65,98,0.89,MU,1708310806
271,lompoc,34.6391,-120.4579,14.77,96,100,7.2,US,1708310835
272,tulum,20.2167,-87.4667,19.03,93,100,3.72,MX,1708310822
273,prachuap khiri khan,12.2167,99.75,29.83,46,95,2.42,TH,1708310836
274,freetown,8.484,-13.2299,26.01,86,50,1.71,SL,1708310837
275,afaahiti,-17.75,-149.2833,29.93,78,100,5.59,PF,1708310837
276,kijang,35.2442,129.2139,15.85,93,100,7.15,KR,1708310838
277,urumqi,43.801,87.6005,-24.47,77,20,1.0,CN,1708310839
278,sovetskaya gavan',48.9723,140.2878,-11.05,91,100,5.88,RU,1708310839
279,talcahuano,-36.7167,-73.1167,16.82,67,0,3.09,CL,1708310840
280,zinjibar,13.1287,45.3807,23.95,78,26,2.1,YE,1708310840
281,tralee,52.2704,-9.7026,9.92,89,100,5.53,IE,1708310842
282,dolgorukovo,52.3195,38.3453,-13.97,98,61,2.69,RU,1708310843
283,nar'yan-mar,67.6713,53.087,-8.89,94,100,5.66,RU,1708310843
284,dzhambeyty,50.2536,52.595,-12.34,83,100,5.22,KZ,1708310845
285,mayya,61.7333,130.2811,-36.38,93,100,2.22,RU,1708310845
286,neiafu,-18.65,-173.9833,29.38,65,75,5.66,TO,1708310846
287,rikaze,29.25,88.8833,1.63,42,31,1.62,CN,1708310846
288,midvagur,62.0511,-7.1939,7.46,100,100,7.2,FO,1708310847
289,mossel bay,-34.1831,22.146,15.96,88,30,3.74,ZA,1708310847
290,weihai,37.5017,122.1136,0.13,60,100,14.31,CN,1708310848
291,portage la prairie,49.9728,-98.2926,-10.62,65,7,1.37,CA,1708310848
292,yeniseysk,58.4497,92.1703,-35.8,100,81,0.37,RU,1708310848
293,east london,-33.0153,27.9116,20.24,91,29,4.31,ZA,1708310849
294,calama,-22.4667,-68.9333,19.27,37,0,5.14,CL,1708310617
295,urzhar,47.093,81.6294,-24.4,87,5,1.3,KZ,1708310850
296,kandry,54.5667,54.1167,-9.84,74,100,8.46,RU,1708310850
297,pisco,-13.7,-76.2167,24.03,78,0,7.2,PE,1708310851
298,northam,51.0333,-4.2167,9.78,99,100,6.16,GB,1708310851
299,fale old settlement,-9.3852,-171.2468,28.43,81,99,5.78,TK,1708310852
300,mugumu,-1.85,34.7,17.25,92,98,1.25,TZ,1708310852
301,tangalle,6.024,80.7911,26.09,71,14,7.49,LK,1708310853
302,howard springs,-12.497,131.047,33.32,78,88,5.31,AU,1708310853
303,kazanskoye,55.6448,69.235,-29.2,99,58,3.44,RU,1708310854
304,savalou,7.9281,1.9756,28.59,65,0,2.45,BJ,1708310854
305,wladyslawowo,54.7909,18.4009,3.85,75,100,7.95,PL,1708310855
306,barakani,-12.1356,44.4317,27.61,78,100,3.58,KM,1708310856
307,quiberon,47.4841,-3.1196,10.19,91,2,3.58,FR,1708310856
308,assab,13.0092,42.7394,24.81,78,99,5.72,ER,1708310857
309,presidente epitacio,-21.7633,-52.1156,21.18,96,63,2.12,BR,1708310857
310,palapye,-22.546,27.1251,21.48,70,0,5.43,BW,1708310858
311,usol'ye,59.4268,56.6808,-10.11,93,100,5.78,RU,1708310858
312,polyarnyy,69.1989,33.4478,-5.89,88,96,9.34,RU,1708310859
313,misratah,32.3754,15.0925,14.28,74,31,2.1,LY,1708310859
314,leh,34.1667,77.5833,-4.81,92,100,2.59,IN,1708310860
315,new kingman-butler,35.265,-114.0323,15.51,44,0,3.6,US,1708310861
316,vine grove,37.8101,-85.9814,1.2,61,0,1.54,US,1708310861
317,vorkuta,67.5,64.0,-10.55,92,100,8.42,RU,1708310862
318,walvis bay,-22.9575,14.5053,15.75,91,0,1.34,NA,1708310863
319,luwuk,-0.9516,122.7875,31.73,53,17,1.59,ID,1708310864
320,kuanda,56.3161,116.0806,-31.87,92,85,1.49,RU,1708310864
321,loudon,35.7328,-84.3338,4.23,67,66,1.19,US,1708310866
322,benguela,-12.5763,13.4055,27.93,80,100,1.18,AO,1708310866
323,mount gambier,-37.8333,140.7667,25.14,40,21,4.56,AU,1708310867
324,new norfolk,-42.7826,147.0587,18.73,43,59,2.46,AU,1708310688
325,saint-pierre,-21.3393,55.4781,24.82,69,0,5.66,RE,1708310869
326,medicine hat,50.0501,-110.6683,-4.45,74,100,4.63,CA,1708310870
327,haimen,23.1935,116.6142,21.94,80,100,1.49,CN,1708310870
328,yangjiang,21.85,111.9667,24.5,75,64,4.48,CN,1708310871
329,ulladulla,-35.35,150.4667,21.81,71,100,3.12,AU,1708310873
330,nephi,39.7102,-111.8363,5.16,76,97,1.38,US,1708310873
331,pacific grove,36.6177,-121.9166,17.03,82,100,12.07,US,1708310874
332,el calafate,-50.3408,-72.2768,13.07,74,95,2.66,AR,1708310875
333,igarka,67.4667,86.5833,-21.34,85,100,11.14,RU,1708310876
334,okhotsk,59.3833,143.3,-20.83,84,81,4.37,RU,1708310876
335,jincheng,35.5022,112.8328,5.01,44,100,0.82,CN,1708310877
336,ljusdal,61.8288,16.0913,-7.58,98,100,0.29,SE,1708310877
337,trincomalee,8.5711,81.2335,27.39,71,96,6.39,LK,1708310878
338,hit,33.6416,42.8251,12.59,64,6,1.4,IQ,1708310878
339,toppenish,46.3774,-120.3087,5.01,88,94,0.3,US,1708310879
340,saldanha,-33.0117,17.9442,16.03,62,13,1.83,ZA,1708310879
341,carnarvon,-24.8667,113.6333,34.6,42,59,2.47,AU,1708310880
342,hovd,48.0056,91.6419,-21.94,71,24,1.2,MN,1708310881
343,christchurch,-43.5333,172.6333,28.11,32,99,9.77,NZ,1708310625
344,antofagasta,-23.65,-70.4,20.6,84,85,0.86,CL,1708310308
345,tosontsengel,48.7567,98.2839,-30.91,91,92,1.38,MN,1708310883
346,eirunepe,-6.6603,-69.8736,23.8,97,98,0.43,BR,1708310884
347,quellon,-43.1167,-73.6167,12.33,87,5,3.79,CL,1708310780
348,dunedin,-45.8742,170.5036,18.22,63,85,4.02,NZ,1708310796
349,dosso,13.049,3.1937,22.67,12,93,4.05,NE,1708310885
350,jalai nur,49.45,117.7,-24.63,80,28,7.63,CN,1708310886
351,san,13.3034,-4.8956,24.18,11,16,4.06,ML,1708310886
352,kousa,25.9141,32.7636,12.05,48,3,2.51,EG,1708310887
353,puerto armuelles,8.2833,-82.8667,28.94,67,100,0.45,PA,1708310888
354,carolina beach,34.0352,-77.8936,5.57,76,100,2.35,US,1708310888
355,san matias,-16.3667,-58.4,24.77,89,99,2.05,BO,1708310889
356,nemuro,43.3236,145.575,3.32,90,96,8.21,JP,1708310890
357,berezovyy,51.6667,135.7,-14.79,77,100,2.24,RU,1708310890
358,punta cana,18.5818,-68.4043,24.87,83,20,2.57,DO,1708310890
359,andergrove,-21.0833,149.1833,30.91,75,98,7.35,AU,1708310891
360,le port,-20.9373,55.2919,25.0,76,90,3.42,RE,1708310892
361,livingston,55.9029,-3.5226,8.6,88,40,5.66,GB,1708310893
362,harper,4.375,-7.7169,27.26,85,98,2.81,LR,1708310894
363,yuzhno-kurilsk,44.0306,145.8556,4.1,69,69,6.77,RU,1708310895
364,priob'ye,62.5206,65.5964,-11.65,86,98,6.79,RU,1708310896
365,rongelap,11.1635,166.8941,26.46,81,97,6.54,MH,1708310896
366,moranbah,-22.0016,148.0466,31.49,41,96,6.76,AU,1708310896
367,benghazi,32.1167,20.0667,13.63,72,12,2.76,LY,1708310897
368,elk city,35.412,-99.4043,3.12,70,0,4.63,US,1708310899
369,fortuna,40.5982,-124.1573,10.52,94,100,4.63,US,1708310899
370,port augusta,-32.5,137.7667,37.16,12,100,4.49,AU,1708310900
371,kangding,30.0513,101.9603,13.08,28,1,1.67,CN,1708310900
372,paragominas,-2.9667,-47.4833,23.62,99,100,1.32,BR,1708310901
373,beacon square,28.2086,-82.7554,13.99,94,100,0.89,US,1708310902
374,lerwick,60.1545,-1.1494,8.0,96,100,5.89,GB,1708310902
375,vila velha,-20.3297,-40.2925,25.97,93,75,2.06,BR,1708310903
376,konarka,19.9,86.1167,25.22,67,1,4.36,IN,1708310903
377,kamba,11.8486,3.6576,23.64,14,65,3.02,NG,1708310904
378,pokhara,28.2333,83.9833,17.66,34,100,1.68,NP,1708310904
379,thomasville,35.8826,-80.082,4.05,65,100,1.72,US,1708310905
380,ivankiv,50.9386,29.8943,-1.87,68,50,1.84,UA,1708310905
381,vilyuchinsk,52.9306,158.4028,-3.85,62,48,2.99,RU,1708310906
382,turtas,58.9417,69.1325,-19.6,91,14,4.58,RU,1708310907
383,aras-asan,8.8908,126.3033,27.3,77,76,4.7,PH,1708310907
384,hamilton,39.1834,-84.5333,1.47,69,0,3.6,US,1708310908
385,mil'kovo,55.6078,37.7956,-3.92,98,68,2.81,RU,1708310909
386,puerto wilches,7.3483,-73.896,28.01,81,81,0.95,CO,1708310909
387,todos santos,23.45,-110.2167,20.72,82,0,2.51,MX,1708310910
388,kerikeri,-35.2268,173.9474,25.51,72,90,3.33,NZ,1708310910
389,bella vista,36.4295,-94.2316,6.51,49,0,3.09,US,1708310911
390,tchintabaraden,15.8969,5.7985,18.22,11,0,4.67,NE,1708310911
391,kismayo,-0.3582,42.5454,26.54,78,82,6.01,SO,1708310912
392,clearwater,27.9659,-82.8001,13.96,94,75,5.14,US,1708310523
393,ciudad lazaro cardenas,17.9583,-102.2,23.1,78,0,1.16,MX,1708310913
394,mokhsogollokh,61.4681,128.9203,-29.82,88,100,2.56,RU,1708310914
395,labytnangi,66.6572,66.4183,-10.05,94,100,6.59,RU,1708310914
396,bandarbeyla,9.4942,50.8122,24.8,66,45,6.56,SO,1708310915
397,sisimiut,66.9395,-53.6735,-13.91,93,100,2.95,GL,1708310915
398,hasaki,35.7333,140.8333,21.27,66,75,10.62,JP,1708310916
399,kapuskasing,49.4169,-82.4331,-16.95,71,40,5.14,CA,1708310916
400,le vauclin,14.5452,-60.8388,27.03,74,40,6.17,MQ,1708310917
401,alexander city,32.944,-85.9539,5.18,60,0,0.0,US,1708310762
402,kuqa,41.7278,82.9364,-5.32,24,100,2.67,CN,1708310918
403,qarauyl,48.9451,79.255,-27.83,100,100,4.32,KZ,1708310919
404,callao,-12.0667,-77.15,27.62,73,40,4.12,PE,1708310919
405,andkhoy,36.9529,65.1238,-0.21,64,77,3.46,AF,1708310920
406,shevchenko,48.5,35.0,-0.47,59,100,4.4,UA,1708310920
407,al ghayzah,16.2079,52.176,22.09,79,9,0.58,YE,1708310921
408,turpan,42.9333,89.1667,-4.38,22,94,1.75,CN,1708310922
409,mogok,22.9167,96.5,22.61,26,1,0.53,MM,1708310922
410,tripoli,32.8752,13.1875,14.08,76,17,3.43,LY,1708310672
411,sinabang,2.4803,96.3801,27.37,79,100,1.46,ID,1708310923
412,south hedland,-20.4089,118.5983,41.96,26,44,5.66,AU,1708310924
413,calvi,42.5,8.8333,9.35,71,0,2.57,FR,1708310924
414,santa cruz,-17.8,-63.1667,26.7,89,40,3.6,BO,1708310630
415,mana,5.6592,-53.7767,26.81,70,92,4.09,GF,1708310925
416,mahibadhoo,3.7833,72.9667,28.3,77,100,5.92,MV,1708310926
417,atmakur,15.8833,78.5833,24.85,40,92,2.27,IN,1708310927
418,sandnessjoen,66.0217,12.6316,-9.71,81,89,6.03,NO,1708310927
419,port-vila,-17.7338,168.3219,29.78,79,75,4.12,VU,1708310928
420,mauranwan,26.4333,80.8833,17.02,40,43,3.75,IN,1708310928
421,puerto deseado,-47.7503,-65.8938,20.37,46,60,8.27,AR,1708310929
422,ta`u,-14.2336,-169.5144,28.43,83,100,9.32,AS,1708310930
423,hastings,50.8552,0.5729,9.02,49,38,3.61,GB,1708310931
424,palikir - national government center,6.9248,158.1611,30.47,70,75,5.14,FM,1708310931
425,kruisfontein,-34.0033,24.7314,16.15,94,0,2.21,ZA,1708310932
426,verkhnevilyuysk,63.4453,120.3167,-25.73,92,100,3.61,RU,1708310933
427,kincardine,56.0667,-3.7167,9.55,94,100,4.53,GB,1708310933
428,campbell river,50.0163,-125.2446,6.74,81,100,0.0,CA,1708310496
429,castellet,41.2628,1.6337,13.66,71,100,1.79,ES,1708310935
430,minas de marcona,-15.2119,-75.1103,19.41,80,98,3.69,PE,1708310935
431,limon,10.0,-83.0333,26.14,87,100,1.63,CR,1708310936
432,chom bueng,13.62,99.5917,31.12,52,68,0.64,TH,1708310936
433,camacupa,-12.0167,17.4833,15.82,97,100,1.75,AO,1708310937
434,ormara,25.2088,64.6357,23.33,79,86,7.13,PK,1708310937
435,tazovsky,67.4667,78.7,-17.11,84,100,11.28,RU,1708310938
436,mpika,-11.8343,31.4529,16.58,96,92,1.12,ZM,1708310938
437,usogorsk,63.4106,48.6872,-10.74,96,100,2.93,RU,1708310939
438,ugoofaaru,5.6667,73.0,28.21,73,63,6.69,MV,1708310940
439,deder,9.3167,41.45,13.12,88,40,1.67,ET,1708310941
440,broome,42.2506,-75.833,-0.77,70,100,5.66,US,1708310941
441,malanje,-9.5402,16.341,18.43,98,100,0.13,AO,1708310942
442,kristiansund,63.1115,7.732,-0.64,64,75,3.09,NO,1708310942
443,manokwari,-0.8667,134.0833,26.98,83,100,1.52,ID,1708310943
444,champasak,14.75,106.0,27.49,34,76,0.78,LA,1708310943
445,island harbour,50.724,-1.2758,10.17,94,59,1.34,GB,1708310944
446,guaraniacu,-25.1008,-52.8781,17.63,85,50,1.24,BR,1708310945
447,udomlya,57.8794,34.9925,-13.9,99,100,2.02,RU,1708310946
448,tapes,-30.6733,-51.3958,23.65,86,49,5.61,BR,1708310946
449,bubaque,11.2833,-15.8333,26.14,75,2,3.11,GW,1708310947
450,kununurra,-15.7667,128.7333,32.99,66,40,5.66,AU,1708310948
451,fort mcmurray,56.7268,-111.381,-7.27,62,0,3.6,CA,1708310948
452,copala,16.65,-98.9833,23.51,71,0,1.35,MX,1708310949
453,whistler,50.1164,-122.9695,2.53,93,92,0.68,CA,1708310949
454,nizhneudinsk,54.9076,99.0276,-25.62,89,18,0.85,RU,1708310951
455,moapa valley,36.5805,-114.4703,14.75,43,0,1.03,US,1708310739
456,es castell,39.8795,4.2854,12.38,100,0,2.57,ES,1708310951
457,kalisz,51.7611,18.091,4.08,77,100,5.15,PL,1708310952
458,inhambane,-23.865,35.3833,25.95,78,84,5.41,MZ,1708310952
459,chonchi,-42.6128,-73.8092,15.62,78,0,1.67,CL,1708310953
460,ludza,56.55,27.7167,-7.9,98,96,1.6,LV,1708310953
461,tshela,-4.9833,12.9333,23.59,98,100,0.71,CD,1708310954
462,zaragoza,41.6561,-0.8773,13.9,64,0,10.29,ES,1708310955
463,crane,31.3974,-102.3501,8.88,39,0,6.19,US,1708310955
464,trostyanets',50.4784,34.963,-4.47,88,18,3.7,UA,1708310956
465,usinsk,65.9939,57.5281,-9.4,86,100,8.94,RU,1708310956
466,pontes e lacerda,-15.2261,-59.3353,26.0,76,100,1.36,BR,1708310957
467,pathardi,19.1667,75.1833,24.47,26,15,1.17,IN,1708310958
468,ishigaki,24.3448,124.1572,26.07,78,75,6.17,JP,1708310958
469,vakhsh,37.7149,68.8346,0.12,100,100,3.0,TJ,1708310959
470,cascais,38.6979,-9.4215,14.53,91,38,4.47,PT,1708310959
471,gargalianoi,37.0667,21.6333,9.64,80,0,2.26,GR,1708310960
472,mumbwa,-14.9783,27.0619,18.34,87,36,2.1,ZM,1708310960
473,baotou,40.6522,109.8222,-7.9,26,69,2.25,CN,1708310920
474,mili,6.0815,171.735,27.48,80,100,7.4,MH,1708310961
475,mallammaduri,12.565,9.9573,20.31,14,34,4.0,NG,1708310962
476,gusinoozyorsk,51.2833,106.5,-28.11,91,31,1.88,RU,1708310962
477,shimoda,34.6667,138.95,18.2,80,100,8.13,JP,1708310963
478,yumbe,3.4651,31.2469,24.18,32,85,0.88,UG,1708310964
479,taroa,8.7058,171.2275,27.6,79,100,5.6,MH,1708310964
480,guerrero negro,27.9769,-114.0611,15.7,73,95,6.13,MX,1708310964
481,galliano,29.4422,-90.2992,7.22,60,1,3.09,US,1708310965
482,ghat,24.9647,10.1728,15.48,19,0,2.44,LY,1708310965
483,bonthe,7.5264,-12.505,26.44,91,72,1.41,SL,1708310966
484,mandalgovi,45.7625,106.2708,-22.8,63,0,2.05,MN,1708310967
485,kampong cham,11.9934,105.4635,31.37,48,59,3.87,KH,1708310967
486,mhamid,29.82,-5.72,13.78,45,0,5.61,MA,1708310968
487,smara,26.7384,-11.6719,17.71,28,0,3.94,EH,1708310968
488,hillsdale,41.0026,-74.0404,4.08,65,0,2.06,US,1708310969
489,fulshear,29.69,-95.8997,9.31,64,0,1.54,US,1708310969
490,drohobych,49.3499,23.5056,-0.72,84,82,2.52,UA,1708310970
491,desaguadero,-16.5656,-69.0417,10.29,78,100,3.24,PE,1708310970
492,plettenberg bay,-34.0527,23.3716,17.56,81,0,2.09,ZA,1708310971
493,saynshand,44.8824,110.1163,-23.48,64,0,2.83,MN,1708310971
494,dalandzadgad,43.5708,104.425,-12.99,18,72,2.22,MN,1708310972
495,nadym,65.5333,72.5167,-16.31,90,100,10.86,RU,1708310972
496,taghazout,30.5426,-9.7112,13.43,48,0,1.96,MA,1708310973
497,boende,-0.2167,20.8667,21.79,95,100,0.73,CD,1708310973
498,tadine,-21.55,167.8833,27.63,70,7,7.2,NC,1708310974
499,kenai,60.5544,-151.2583,4.05,69,100,6.17,US,1708310974
500,vilyuysk,63.7553,121.6247,-26.16,93,100,3.0,RU,1708310975
501,san andres,12.5847,-81.7006,28.01,83,20,3.09,CO,1708310812
502,sars,56.5502,57.1366,-11.93,82,100,6.8,RU,1708310976
503,mont-dore,-22.2833,166.5833,29.99,65,0,5.47,NC,1708310976
504,colonia,50.9333,6.95,9.42,86,75,7.2,DE,1708310977
505,kharkhorin,47.1975,102.8238,-28.03,95,46,1.02,MN,1708310977
506,villa regina,-39.1,-67.0667,26.66,15,29,0.89,AR,1708310978
507,mananjary,-21.2167,48.3333,24.37,84,100,4.08,MG,1708310978
508,luanco,43.6152,-5.7934,14.05,99,100,1.93,ES,1708310979
509,ayabaca,-4.6398,-79.7149,9.66,98,99,0.42,PE,1708310979
510,karachi,24.9056,67.0822,22.9,88,75,5.66,PK,1708310980
511,bezenchuk,52.982,49.4333,-7.25,94,100,7.82,RU,1708310980
512,saudarkrokur,65.7461,-19.6394,2.34,82,100,2.98,IS,1708310980
513,qulsary,46.9531,54.0198,-12.24,75,9,5.26,KZ,1708310981
514,espinho,41.0076,-8.6413,13.95,97,19,1.53,PT,1708310981
515,maler kotla,30.5167,75.8833,17.84,31,51,8.11,IN,1708310982
516,coquimbo,-29.9533,-71.3436,17.85,88,100,3.6,CL,1708310982
517,al jawf,29.5,38.75,10.52,52,0,1.32,SA,1708310983
518,barabai,-2.5833,115.3833,32.82,56,60,1.64,ID,1708310983
519,cerrik,41.0317,19.9758,3.75,72,1,1.53,AL,1708310984
520,paracuru,-3.41,-39.0306,28.39,87,98,2.16,BR,1708310984
521,manturovo,58.3353,44.7619,-10.38,97,100,1.81,RU,1708310985
522,mar del plata,-38.0023,-57.5575,22.27,93,20,2.68,AR,1708310595
523,magdagachi,53.45,125.8,-23.27,69,8,4.3,RU,1708310986
524,novoishimskiy,53.1981,66.7694,-29.6,99,67,3.14,KZ,1708310986
525,ostashkov,57.1467,33.1075,-15.7,100,100,1.53,RU,1708310987
526,tomohon,1.3346,124.8392,24.52,69,56,2.1,ID,1708310987
527,queenstown,-31.8976,26.8753,11.62,95,34,1.02,ZA,1708310708
528,obligado,-27.0333,-55.6333,21.0,80,4,0.77,PY,1708310988
529,belo jardim,-8.3356,-36.4242,22.34,94,100,0.87,BR,1708310988
530,broken hill,-31.95,141.4333,33.7,11,34,5.05,AU,1708310990
531,yamada,39.4667,141.95,14.01,73,72,6.53,JP,1708310990
532,basco,20.4487,121.9702,25.43,81,5,6.35,PH,1708310991
533,gaiman,-43.2897,-65.4929,23.56,32,82,2.24,AR,1708310991
534,minjur,13.2667,80.2667,25.01,64,66,2.42,IN,1708310992
535,cill airne,52.05,-9.5167,9.95,90,100,4.45,IE,1708310992
536,as sulayyil,20.4607,45.5779,16.14,37,6,4.8,SA,1708310993
537,romita,20.8667,-101.5167,14.14,37,0,0.45,MX,1708310993
538,upington,-28.4478,21.2561,21.21,14,0,1.54,ZA,1708310780
539,alamos,27.0167,-108.9333,18.83,35,2,0.41,MX,1708310994
540,rumphi,-11.0186,33.8575,18.52,91,100,0.65,MW,1708310995
541,esmeralda,21.8525,-78.1169,24.3,82,48,4.52,CU,1708310996
542,obock,12.25,43.0833,20.07,78,100,5.03,DJ,1708310996
543,la mira,18.035,-102.3266,22.42,80,0,1.29,MX,1708310997
544,langres,47.8333,5.3333,7.88,97,100,3.62,FR,1708310997
545,los altos,37.3852,-122.1141,16.82,90,75,7.72,US,1708310840
546,nelson bay,-32.7167,152.15,20.03,92,100,2.13,AU,1708310998
547,villa altagracia,18.673,-70.171,25.62,92,7,1.36,DO,1708310999
548,namtsy,62.7161,129.6658,-35.28,92,89,0.79,RU,1708311000
549,chakia,26.4167,85.05,17.98,34,90,2.32,IN,1708311001
550,zaozersk,69.4005,32.4476,-7.04,90,77,8.85,RU,1708311001
551,port blair,11.6667,92.75,29.02,54,100,3.6,IN,1708311003
552,semporna,4.4818,118.6112,29.03,72,100,2.71,MY,1708311004
553,pangkalanbuun,-2.6833,111.6167,32.8,56,14,0.98,ID,1708311005
554,qarazhal,48.0078,70.7903,-26.31,90,5,4.03,KZ,1708311005
555,tambopata,-12.7333,-69.1833,23.58,98,94,1.27,PE,1708311006
556,opuwo,-18.0607,13.84,20.78,32,100,0.85,NA,1708311007
557,itamaraca,-7.7478,-34.8256,29.03,85,100,3.77,BR,1708311008
558,umm kaddadah,13.6017,26.6876,17.3,18,2,7.19,SD,1708311008
559,amga,60.8953,131.9608,-28.87,86,100,2.32,RU,1708311009
560,midland,31.9974,-102.0779,9.37,43,0,2.57,US,1708310906
561,sittwe,20.15,92.9,21.63,41,1,2.47,MM,1708311010
562,ijevan,40.8783,45.1492,2.4,95,94,0.32,AM,1708311011
563,geraldton,-28.7667,114.6,46.23,5,60,10.29,AU,1708311012
564,guapiles,10.2159,-83.7866,27.94,97,100,0.81,CR,1708311012
565,jayapura,-2.5333,140.7,29.66,71,94,3.08,ID,1708311013
566,minab,27.1467,57.0801,18.64,61,1,1.23,IR,1708311014
567,tynda,55.1667,124.7167,-28.44,77,38,3.1,RU,1708311015
568,cariamanga,-4.3333,-79.55,12.34,96,98,0.61,EC,1708311015
569,hargeysa,9.56,44.065,17.11,88,92,6.25,SO,1708311016
570,waasmunster,51.1188,4.0773,9.75,92,0,3.26,BE,1708311016
571,kiunga,-6.1219,141.2906,32.14,62,88,1.39,PG,1708311017
572,guixi,28.2886,117.2133,22.33,73,96,1.51,CN,1708311018
573,butembo,0.15,29.2833,15.32,87,100,1.23,CD,1708311019
574,cambria,35.5641,-121.0808,15.31,97,100,4.47,US,1708311019
575,kayangel,8.0823,134.7173,27.54,80,100,7.37,PW,1708311020
576,spring creek,40.7266,-115.5859,2.83,64,51,0.45,US,1708311020
577,tres arroyos,-38.3739,-60.2798,15.45,95,2,2.15,AR,1708311021
578,shahrisabz,39.0578,66.8342,-3.76,96,100,1.59,UZ,1708311022
